[
   [
      {
         "id": 3282264,
         "name": "Picacho",
         "region": "Chihuahua",
         "country": "Mexico",
         "lat": 28.95,
         "lon": -106.42,
         "url": "picacho-chihuahua-mexico"
      },
      {
         "id": 3286138,
         "name": "Don Reyes",
         "region": "Chihuahua",
         "country": "Mexico",
         "lat": 28.94,
         "lon": -106.39,
         "url": "don-reyes-chihuahua-mexico"
      },
      {
         "id": 3281427,
         "name": "Sandillal De San Marcos",
         "region": "Chihuahua",
         "country": "Mexico",
         "lat": 28.86,
         "lon": -106.53,
         "url": "sandillal-de-san-marcos-chihuahua-mexico"
      },
      {
         "id": 3286137,
         "name": "Pena Blanca",
         "region": "Chihuahua",
         "country": "Mexico",
         "lat": 29.0,
         "lon": -106.43,
         "url": "pena-blanca-chihuahua-mexico"
      },
      {
         "id": 3279935,
         "name": "Penas Azules",
         "region": "Chihuahua",
         "country": "Mexico",
         "lat": 28.85,
         "lon": -106.4,
         "url": "penas-azules-chihuahua-mexico"
      },
      {
         "id": 3286140,
         "name": "El Alamillo",
         "region": "Chihuahua",
         "country": "Mexico",
         "lat": 28.87,
         "lon": -106.38,
         "url": "el-alamillo-chihuahua-mexico"
      },
      {
         "id": 3286136,
         "name": "Mil Castillos",
         "region": "Chihuahua",
         "country": "Mexico",
         "lat": 28.83,
         "lon": -106.5,
         "url": "mil-castillos-chihuahua-mexico"
      },
      {
         "id": 3286139,
         "name": "Colonia Cuauhtemoc",
         "region": "Chihuahua",
         "country": "Mexico",
         "lat": 28.92,
         "lon": -106.35,
         "url": "colonia-cuauhtemoc-chihuahua-mexico"
      },
      {
         "id": 3286171,
         "name": "Pena Blanca",
         "region": "Chihuahua",
         "country": "Mexico",
         "lat": 29.01,
         "lon": -106.42,
         "url": "pena-blanca-chihuahua-mexico"
      },
      {
         "id": 3283306,
         "name": "La Cendradita",
         "region": "Chihuahua",
         "country": "Mexico",
         "lat": 28.94,
         "lon": -106.35,
         "url": "la-cendradita-chihuahua-mexico"
      }
   ],
   [
      {
         "id": 316759,
         "name": "Rochebaucourt",
         "region": "Quebec",
         "country": "Canada",
         "lat": 48.67,
         "lon": -77.47,
         "url": "rochebaucourt-quebec-canada"
      },
      {
         "id": 313511,
         "name": "Champcoeur",
         "region": "Quebec",
         "country": "Canada",
         "lat": 48.67,
         "lon": -77.63,
         "url": "champcoeur-quebec-canada"
      },
      {
         "id": 315139,
         "name": "Lac-Castagnier",
         "region": "Quebec",
         "country": "Canada",
         "lat": 48.7,
         "lon": -77.73,
         "url": "lac-castagnier-quebec-canada"
      },
      {
         "id": 315205,
         "name": "Lamorandiere",
         "region": "Quebec",
         "country": "Canada",
         "lat": 48.62,
         "lon": -77.63,
         "url": "lamorandiere-quebec-canada"
      },
      {
         "id": 317279,
         "name": "Senneterre",
         "region": "Quebec",
         "country": "Canada",
         "lat": 48.4,
         "lon": -77.25,
         "url": "senneterre-quebec-canada"
      },
      {
         "id": 318165,
         "name": "Woswonaby",
         "region": "Quebec",
         "country": "Canada",
         "lat": 49.65,
         "lon": -76.48,
         "url": "woswonaby-quebec-canada"
      },
      {
         "id": 317986,
         "name": "Waswanipi",
         "region": "Quebec",
         "country": "Canada",
         "lat": 49.65,
         "lon": -76.48,
         "url": "waswanipi-quebec-canada"
      },
      {
         "id": 313028,
         "name": "Belcourt",
         "region": "Quebec",
         "country": "Canada",
         "lat": 48.4,
         "lon": -77.35,
         "url": "belcourt-quebec-canada"
      },
      {
         "id": 317857,
         "name": "Val-Laflamme",
         "region": "Quebec",
         "country": "Canada",
         "lat": 48.52,
         "lon": -77.68,
         "url": "val-laflamme-quebec-canada"
      },
      {
         "id": 316883,
         "name": "Saint Blaise De Barraute",
         "region": "Quebec",
         "country": "Canada",
         "lat": 48.52,
         "lon": -77.68,
         "url": "saint-blaise-de-barraute-quebec-canada"
      }
   ],
   [
      {
         "id": 2651545,
         "name": "Lynchburg",
         "region": "Tennessee",
         "country": "United States of America",
         "lat": 35.28,
         "lon": -86.37,
         "url": "lynchburg-tennessee-united-states-of-america"
      },
      {
         "id": 2650870,
         "name": "Hickory Hill",
         "region": "Tennessee",
         "country": "United States of America",
         "lat": 35.26,
         "lon": -86.35,
         "url": "hickory-hill-tennessee-united-states-of-america"
      },
      {
         "id": 2649887,
         "name": "Countyline",
         "region": "Tennessee",
         "country": "United States of America",
         "lat": 35.32,
         "lon": -86.37,
         "url": "countyline-tennessee-united-states-of-america"
      },
      {
         "id": 2651490,
         "name": "Lois",
         "region": "Tennessee",
         "country": "United States of America",
         "lat": 35.23,
         "lon": -86.37,
         "url": "lois-tennessee-united-states-of-america"
      },
      {
         "id": 2652523,
         "name": "Ridgeville",
         "region": "Tennessee",
         "country": "United States of America",
         "lat": 35.27,
         "lon": -86.3,
         "url": "ridgeville-tennessee-united-states-of-america"
      },
      {
         "id": 2652461,
         "name": "Raysville",
         "region": "Tennessee",
         "country": "United States of America",
         "lat": 35.33,
         "lon": -86.32,
         "url": "raysville-tennessee-united-states-of-america"
      },
      {
         "id": 2649331,
         "name": "Booneville",
         "region": "Tennessee",
         "country": "United States of America",
         "lat": 35.27,
         "lon": -86.46,
         "url": "booneville-tennessee-united-states-of-america"
      },
      {
         "id": 2650523,
         "name": "Gattistown",
         "region": "Tennessee",
         "country": "United States of America",
         "lat": 35.21,
         "lon": -86.4,
         "url": "gattistown-tennessee-united-states-of-america"
      },
      {
         "id": 2651956,
         "name": "New Herman",
         "region": "Tennessee",
         "country": "United States of America",
         "lat": 35.34,
         "lon": -86.44,
         "url": "new-herman-tennessee-united-states-of-america"
      },
      {
         "id": 2653285,
         "name": "Turkey Creek",
         "region": "Tennessee",
         "country": "United States of America",
         "lat": 35.31,
         "lon": -86.28,
         "url": "turkey-creek-tennessee-united-states-of-america"
      }
   ]
]
